[
  {
    "facilityID": "438GD",
    "VISN": 23,
    "name": "Aberdeen VA Clinic",
    "type": 1,
    "address": "2301 8th Ave Northeast",
    "city": "Aberdeen",
    "state": "SD",
    "zip": "57401",
    "phone": "605-229-3500",
    "fax": "605-229-3505",
    "url": "",
    "latitude": 45.47370679,
    "longitude": -98.45561101,
    "sliceEndDate": "2017-03-24T21:30:45",
    "ApptTypeName": "Primary Care (Urgent)",
    "distance": 0,
    "SHEPScore": 0.88462543487548828
  },
  {
    "facilityID": "438GD",
    "VISN": 23,
    "name": "Aberdeen VA Clinic",
    "type": 1,
    "address": "2301 8th Ave Northeast",
    "city": "Aberdeen",
    "state": "SD",
    "zip": "57401",
    "phone": "605-229-3500",
    "fax": "605-229-3505",
    "url": "",
    "latitude": 45.47370679,
    "longitude": -98.45561101,
    "sliceEndDate": "2017-03-24T21:30:56",
    "ApptTypeName": "Primary Care (Routine)",
    "distance": 0,
    "SHEPScore": 0.98107600212097168
  },
  {
    "facilityID": "658",
    "VISN": 6,
    "name": "Salem VA Medical Center",
    "type": 0,
    "address": "1970 Roanoke Boulevard",
    "city": "Salem",
    "state": "VA",
    "zip": "24153",
    "phone": "540-982-2463",
    "fax": "540-983-1096",
    "url": "http://www.salem.va.gov/",
    "latitude": 37.27651337,
    "longitude": -80.02275351,
    "sliceEndDate": "2017-03-24T21:30:39",
    "ApptTypeName": "Primary Care (Urgent)",
    "distance": 0,
    "SHEPScore": 0.87292999029159546
  },
  {
    "facilityID": "658",
    "VISN": 6,
    "name": "Salem VA Medical Center",
    "type": 0,
    "address": "1970 Roanoke Boulevard",
    "city": "Salem",
    "state": "VA",
    "zip": "24153",
    "phone": "540-982-2463",
    "fax": "540-983-1096",
    "url": "http://www.salem.va.gov/",
    "latitude": 37.27651337,
    "longitude": -80.02275351,
    "sliceEndDate": "2017-03-24T21:30:48",
    "ApptTypeName": "Primary Care (Routine)",
    "distance": 0,
    "SHEPScore": 0.90447336435317993
  },
  {
    "facilityID": "658",
    "VISN": 6,
    "name": "Salem VA Medical Center",
    "type": 0,
    "address": "1970 Roanoke Boulevard",
    "city": "Salem",
    "state": "VA",
    "zip": "24153",
    "phone": "540-982-2463",
    "fax": "540-983-1096",
    "url": "http://www.salem.va.gov/",
    "latitude": 37.27651337,
    "longitude": -80.02275351,
    "sliceEndDate": "2017-03-24T21:30:59",
    "ApptTypeName": "Specialty Care (Routine)",
    "distance": 0,
    "SHEPScore": 0.88838011026382446
  },
  {
    "facilityID": "658",
    "VISN": 6,
    "name": "Salem VA Medical Center",
    "type": 0,
    "address": "1970 Roanoke Boulevard",
    "city": "Salem",
    "state": "VA",
    "zip": "24153",
    "phone": "540-982-2463",
    "fax": "540-983-1096",
    "url": "http://www.salem.va.gov/",
    "latitude": 37.27651337,
    "longitude": -80.02275351,
    "sliceEndDate": "2017-03-24T21:30:57",
    "ApptTypeName": "Specialty Care (Urgent)",
    "distance": 0,
    "SHEPScore": 0.83934932947158813
  }
]
