[
  {
    "facilityID": "648GA",
    "VISN": 20,
    "name": "Bend VA Clinic",
    "type": 1,
    "address": "2650 Northeast Courtney Drive",
    "city": "Bend",
    "state": "OR",
    "zip": "97701",
    "phone": "541-647-5200 ",
    "fax": "541-389-5459 ",
    "url": "",
    "latitude": 44.07203701,
    "longitude": -121.26477536,
    "ApptTypeName": "PRIMARY CARE",
    "estWaitTime": 3.0,
    "newWaitTime": 23.0,
    "sliceEndDate": "2017-03-31T00:00:00",
    "ED": false,
    "UC": false,
    "SameDayPC": true,
    "SameDayMH": true,
    "WalkInPC": true,
    "WalkInMH": true,
    "TelehealthPC": false,
    "TelehealthMH": true,
    "distance": 0
  },
  {
    "facilityID": "648GA",
    "VISN": 20,
    "name": "Bend VA Clinic",
    "type": 1,
    "address": "2650 Northeast Courtney Drive",
    "city": "Bend",
    "state": "OR",
    "zip": "97701",
    "phone": "541-647-5200 ",
    "fax": "541-389-5459 ",
    "url": "",
    "latitude": 44.07203701,
    "longitude": -121.26477536,
    "ApptTypeName": "MENTAL HEALTH",
    "estWaitTime": 9.0,
    "newWaitTime": 19.0,
    "sliceEndDate": "2017-03-31T00:00:00",
    "ED": false,
    "UC": false,
    "SameDayPC": true,
    "SameDayMH": true,
    "WalkInPC": true,
    "WalkInMH": true,
    "TelehealthPC": false,
    "TelehealthMH": true,
    "distance": 0
  },
  {
    "facilityID": "648GA",
    "VISN": 20,
    "name": "Bend VA Clinic",
    "type": 1,
    "address": "2650 Northeast Courtney Drive",
    "city": "Bend",
    "state": "OR",
    "zip": "97701",
    "phone": "541-647-5200 ",
    "fax": "541-389-5459 ",
    "url": "",
    "latitude": 44.07203701,
    "longitude": -121.26477536,
    "ApptTypeName": "AUDIOLOGY",
    "estWaitTime": 7.0,
    "newWaitTime": 19.0,
    "sliceEndDate": "2017-03-31T00:00:00",
    "ED": false,
    "UC": false,
    "SameDayPC": true,
    "SameDayMH": true,
    "WalkInPC": true,
    "WalkInMH": true,
    "TelehealthPC": false,
    "TelehealthMH": true,
    "distance": 0
  },
  {
    "facilityID": "648GA",
    "VISN": 20,
    "name": "Bend VA Clinic",
    "type": 1,
    "address": "2650 Northeast Courtney Drive",
    "city": "Bend",
    "state": "OR",
    "zip": "97701",
    "phone": "541-647-5200 ",
    "fax": "541-389-5459 ",
    "url": "",
    "latitude": 44.07203701,
    "longitude": -121.26477536,
    "ApptTypeName": "OPHTHALMOLOGY",
    "estWaitTime": 16.0,
    "newWaitTime": 65.0,
    "sliceEndDate": "2017-03-31T00:00:00",
    "ED": false,
    "UC": false,
    "SameDayPC": true,
    "SameDayMH": true,
    "WalkInPC": true,
    "WalkInMH": true,
    "TelehealthPC": false,
    "TelehealthMH": true,
    "distance": 0
  },
  {
    "facilityID": "648GA",
    "VISN": 20,
    "name": "Bend VA Clinic",
    "type": 1,
    "address": "2650 Northeast Courtney Drive",
    "city": "Bend",
    "state": "OR",
    "zip": "97701",
    "phone": "541-647-5200 ",
    "fax": "541-389-5459 ",
    "url": "",
    "latitude": 44.07203701,
    "longitude": -121.26477536,
    "ApptTypeName": "OPTOMETRY",
    "estWaitTime": 6.0,
    "newWaitTime": 35.0,
    "sliceEndDate": "2017-03-31T00:00:00",
    "ED": false,
    "UC": false,
    "SameDayPC": true,
    "SameDayMH": true,
    "WalkInPC": true,
    "WalkInMH": true,
    "TelehealthPC": false,
    "TelehealthMH": true,
    "distance": 0
  },
  {
    "facilityID": "521GG",
    "VISN": 7,
    "name": "Bessemer VA Clinic",
    "type": 1,
    "address": "975 Ninth Avenue, Southwest",
    "city": "Bessemer",
    "state": "AL",
    "zip": "35022",
    "phone": "205-428-3495 ",
    "fax": "205-428-9240 ",
    "url": "",
    "latitude": 33.37485818,
    "longitude": -86.9901955,
    "ApptTypeName": "OPTOMETRY",
    "estWaitTime": 1.0,
    "newWaitTime": 14.0,
    "sliceEndDate": "2017-03-31T00:00:00",
    "ED": false,
    "UC": false,
    "SameDayPC": true,
    "SameDayMH": true,
    "WalkInPC": false,
    "WalkInMH": false,
    "TelehealthPC": false,
    "TelehealthMH": true,
    "distance": 0
  },
  {
    "facilityID": "520",
    "VISN": 16,
    "name": "Biloxi VA Medical Center",
    "type": 0,
    "address": "400 Veterans Avenue",
    "city": "Biloxi",
    "state": "MS",
    "zip": "39531",
    "phone": "228-523-5000 ",
    "fax": "228-523-5719 ",
    "url": "http://www.biloxi.va.gov/",
    "latitude": 30.40901091,
    "longitude": -88.94720983,
    "ApptTypeName": "OPTOMETRY",
    "estWaitTime": 10.0,
    "newWaitTime": 14.0,
    "sliceEndDate": "2017-03-31T00:00:00",
    "ED": true,
    "UC": false,
    "SameDayPC": true,
    "SameDayMH": true,
    "WalkInPC": true,
    "WalkInMH": true,
    "TelehealthPC": true,
    "TelehealthMH": true,
    "distance": 0
  },
  {
    "facilityID": "528GN",
    "VISN": 2,
    "name": "Binghamton VA Clinic",
    "type": 1,
    "address": "425 Robinson Street",
    "city": "Binghamton",
    "state": "NY",
    "zip": "13904",
    "phone": "607-772-9100 ",
    "fax": "607-772-3081 ",
    "url": "",
    "latitude": 42.10824544,
    "longitude": -75.86668025,
    "ApptTypeName": "OPTOMETRY",
    "estWaitTime": 10.0,
    "newWaitTime": 36.0,
    "sliceEndDate": "2017-03-31T00:00:00",
    "ED": false,
    "UC": false,
    "SameDayPC": true,
    "SameDayMH": true,
    "WalkInPC": false,
    "WalkInMH": false,
    "TelehealthPC": false,
    "TelehealthMH": true,
    "distance": 0
  },
  {
    "facilityID": "521",
    "VISN": 7,
    "name": "Birmingham VA Medical Center",
    "type": 0,
    "address": "700 South 19th Street",
    "city": "Birmingham",
    "state": "AL",
    "zip": "35233",
    "phone": "205-933-8101 ",
    "fax": "205-933-4497 ",
    "url": "http://www.birmingham.va.gov/",
    "latitude": 33.50455985,
    "longitude": -86.80090691,
    "ApptTypeName": "OPTOMETRY",
    "estWaitTime": 10.0,
    "newWaitTime": 12.0,
    "sliceEndDate": "2017-03-31T00:00:00",
    "ED": true,
    "UC": false,
    "SameDayPC": true,
    "SameDayMH": true,
    "WalkInPC": true,
    "WalkInMH": false,
    "TelehealthPC": true,
    "TelehealthMH": true,
    "distance": 0
  },
  {
    "facilityID": "603",
    "VISN": 7,
    "name": "Birmingham VA Medical Center",
    "type": 0,
    "address": "700 South 19th Street",
    "city": "Birmingham",
    "state": "AL",
    "zip": "35233",
    "phone": "205-933-8101 ",
    "fax": "205-933-4497 ",
    "url": "http://www.birmingham.va.gov/",
    "latitude": 33.50455985,
    "longitude": -86.80090691,
    "ApptTypeName": "WOMEN'S HEALTH",
    "estWaitTime": 10.0,
    "newWaitTime": 12.0,
    "sliceEndDate": "2017-03-31T00:00:00",
    "ED": true,
    "UC": false,
    "SameDayPC": true,
    "SameDayMH": true,
    "WalkInPC": true,
    "WalkInMH": false,
    "TelehealthPC": true,
    "TelehealthMH": true,
    "distance": 0
  },
  {
    "facilityID": "603",
    "VISN": 7,
    "name": "Birmingham VA Medical Center",
    "type": 0,
    "address": "700 South 19th Street",
    "city": "Birmingham",
    "state": "AL",
    "zip": "35233",
    "phone": "205-933-8101 ",
    "fax": "205-933-4497 ",
    "url": "http://www.birmingham.va.gov/",
    "latitude": 33.50455985,
    "longitude": -86.80090691,
    "ApptTypeName": "AUDIOLOGY",
    "estWaitTime": 10.0,
    "newWaitTime": 12.0,
    "sliceEndDate": "2017-03-31T00:00:00",
    "ED": true,
    "UC": false,
    "SameDayPC": true,
    "SameDayMH": true,
    "WalkInPC": true,
    "WalkInMH": false,
    "TelehealthPC": true,
    "TelehealthMH": true,
    "distance": 0
  },
  {
    "facilityID": "603",
    "VISN": 7,
    "name": "Birmingham VA Medical Center",
    "type": 0,
    "address": "700 South 19th Street",
    "city": "Birmingham",
    "state": "AL",
    "zip": "35233",
    "phone": "205-933-8101 ",
    "fax": "205-933-4497 ",
    "url": "http://www.birmingham.va.gov/",
    "latitude": 33.50455985,
    "longitude": -86.80090691,
    "ApptTypeName": "CARDIOLOGY",
    "estWaitTime": 10.0,
    "newWaitTime": 12.0,
    "sliceEndDate": "2017-03-31T00:00:00",
    "ED": true,
    "UC": false,
    "SameDayPC": true,
    "SameDayMH": true,
    "WalkInPC": true,
    "WalkInMH": false,
    "TelehealthPC": true,
    "TelehealthMH": true,
    "distance": 0
  },
  {
    "facilityID": "603",
    "VISN": 7,
    "name": "Birmingham VA Medical Center",
    "type": 0,
    "address": "700 South 19th Street",
    "city": "Birmingham",
    "state": "AL",
    "zip": "35233",
    "phone": "205-933-8101 ",
    "fax": "205-933-4497 ",
    "url": "http://www.birmingham.va.gov/",
    "latitude": 33.50455985,
    "longitude": -86.80090691,
    "ApptTypeName": "DERMATOLOGY",
    "estWaitTime": 10.0,
    "newWaitTime": 12.0,
    "sliceEndDate": "2017-03-31T00:00:00",
    "ED": true,
    "UC": false,
    "SameDayPC": true,
    "SameDayMH": true,
    "WalkInPC": true,
    "WalkInMH": false,
    "TelehealthPC": true,
    "TelehealthMH": true,
    "distance": 0
  },
  {
    "facilityID": "603",
    "VISN": 7,
    "name": "Birmingham VA Medical Center",
    "type": 0,
    "address": "700 South 19th Street",
    "city": "Birmingham",
    "state": "AL",
    "zip": "35233",
    "phone": "205-933-8101 ",
    "fax": "205-933-4497 ",
    "url": "http://www.birmingham.va.gov/",
    "latitude": 33.50455985,
    "longitude": -86.80090691,
    "ApptTypeName": "GASTROENTEROLOGY",
    "estWaitTime": 10.0,
    "newWaitTime": 12.0,
    "sliceEndDate": "2017-03-31T00:00:00",
    "ED": true,
    "UC": false,
    "SameDayPC": true,
    "SameDayMH": true,
    "WalkInPC": true,
    "WalkInMH": false,
    "TelehealthPC": true,
    "TelehealthMH": true,
    "distance": 0
  },
  {
    "facilityID": "603",
    "VISN": 7,
    "name": "Birmingham VA Medical Center",
    "type": 0,
    "address": "700 South 19th Street",
    "city": "Birmingham",
    "state": "AL",
    "zip": "35233",
    "phone": "205-933-8101 ",
    "fax": "205-933-4497 ",
    "url": "http://www.birmingham.va.gov/",
    "latitude": 33.50455985,
    "longitude": -86.80090691,
    "ApptTypeName": "GYNECOLOGY",
    "estWaitTime": 10.0,
    "newWaitTime": 12.0,
    "sliceEndDate": "2017-03-31T00:00:00",
    "ED": true,
    "UC": false,
    "SameDayPC": true,
    "SameDayMH": true,
    "WalkInPC": true,
    "WalkInMH": false,
    "TelehealthPC": true,
    "TelehealthMH": true,
    "distance": 0
  },
  {
    "facilityID": "603",
    "VISN": 7,
    "name": "Birmingham VA Medical Center",
    "type": 0,
    "address": "700 South 19th Street",
    "city": "Birmingham",
    "state": "AL",
    "zip": "35233",
    "phone": "205-933-8101 ",
    "fax": "205-933-4497 ",
    "url": "http://www.birmingham.va.gov/",
    "latitude": 33.50455985,
    "longitude": -86.80090691,
    "ApptTypeName": "OPHTHALMOLOGY",
    "estWaitTime": 10.0,
    "newWaitTime": 12.0,
    "sliceEndDate": "2017-03-31T00:00:00",
    "ED": true,
    "UC": false,
    "SameDayPC": true,
    "SameDayMH": true,
    "WalkInPC": true,
    "WalkInMH": false,
    "TelehealthPC": true,
    "TelehealthMH": true,
    "distance": 0
  },
  {
    "facilityID": "603",
    "VISN": 7,
    "name": "Birmingham VA Medical Center",
    "type": 0,
    "address": "700 South 19th Street",
    "city": "Birmingham",
    "state": "AL",
    "zip": "35233",
    "phone": "205-933-8101 ",
    "fax": "205-933-4497 ",
    "url": "http://www.birmingham.va.gov/",
    "latitude": 33.50455985,
    "longitude": -86.80090691,
    "ApptTypeName": "OPTOMETRY",
    "estWaitTime": 10.0,
    "newWaitTime": 12.0,
    "sliceEndDate": "2017-03-31T00:00:00",
    "ED": true,
    "UC": false,
    "SameDayPC": true,
    "SameDayMH": true,
    "WalkInPC": true,
    "WalkInMH": false,
    "TelehealthPC": true,
    "TelehealthMH": true,
    "distance": 0
  },
  {
    "facilityID": "603",
    "VISN": 7,
    "name": "Birmingham VA Medical Center",
    "type": 0,
    "address": "700 South 19th Street",
    "city": "Birmingham",
    "state": "AL",
    "zip": "35233",
    "phone": "205-933-8101 ",
    "fax": "205-933-4497 ",
    "url": "http://www.birmingham.va.gov/",
    "latitude": 33.50455985,
    "longitude": -86.80090691,
    "ApptTypeName": "ORTHOPEDICS",
    "estWaitTime": 10.0,
    "newWaitTime": 12.0,
    "sliceEndDate": "2017-03-31T00:00:00",
    "ED": true,
    "UC": false,
    "SameDayPC": true,
    "SameDayMH": true,
    "WalkInPC": true,
    "WalkInMH": false,
    "TelehealthPC": true,
    "TelehealthMH": true,
    "distance": 0
  },
  {
    "facilityID": "603",
    "VISN": 7,
    "name": "Birmingham VA Medical Center",
    "type": 0,
    "address": "700 South 19th Street",
    "city": "Birmingham",
    "state": "AL",
    "zip": "35233",
    "phone": "205-933-8101 ",
    "fax": "205-933-4497 ",
    "url": "http://www.birmingham.va.gov/",
    "latitude": 33.50455985,
    "longitude": -86.80090691,
    "ApptTypeName": "UROLOGY CLINIC",
    "estWaitTime": 10.0,
    "newWaitTime": 12.0,
    "sliceEndDate": "2017-03-31T00:00:00",
    "ED": true,
    "UC": false,
    "SameDayPC": true,
    "SameDayMH": true,
    "WalkInPC": true,
    "WalkInMH": false,
    "TelehealthPC": true,
    "TelehealthMH": true,
    "distance": 0
  }
]
